{
  "generated_at": "2026-06-13T06:42:00-04:00",
  "display": {
    "mode": "morning",
    "dwell_seconds": 12,
    "refresh_seconds": 30
  },
  "location": {
    "name": "Atlanta Metro",
    "lat": 33.749,
    "lon": -84.388
  },
  "briefing": {
    "bottom_line": "Heat is today's primary hazard. The index climbs into the danger band by early afternoon, thunderstorms develop after 2 PM with a marginal lightning threat, and air quality is Code Orange. Recommend heavy work before noon, hourly hydration, and clearing elevated and exposed work once storms move in.",
    "watch_for": [
      "Heat index to ~104\u00b0F after noon \u2014 heat-illness risk",
      "PM thunderstorms after 2 PM \u2014 lightning",
      "Air quality Code Orange \u2014 pace the sensitive crew"
    ],
    "source": "model",
    "generated_at": "2026-06-13T06:40:00-04:00",
    "sources": [
      "NWS FFC",
      "SPC"
    ]
  },
  "hazards": {
    "ranked": [
      {
        "key": "heat_index",
        "rank": 1,
        "label": "Heat index to ~104\u00b0F after noon",
        "severity": "danger"
      },
      {
        "key": "thunderstorms",
        "rank": 2,
        "label": "PM thunderstorms after 2 PM",
        "severity": "watch"
      }
    ],
    "aqi_callout": {
      "aqi": 105,
      "category": "Unhealthy for Sensitive Groups",
      "label": "Code Orange"
    }
  },
  "weather": {
    "current": {
      "temp_f": 78,
      "feels_like_f": 82,
      "wind": {
        "dir": "SW",
        "speed_mph": 6,
        "gust_mph": null
      },
      "summary": "Partly cloudy"
    },
    "today": {
      "high_f": 96,
      "low_f": 75,
      "heat_index_f": 104,
      "pop_pct": 40,
      "pop_window": "after 2 PM",
      "daylight_until": "20:51",
      "summary": "PM storms",
      "sunrise": "2026-06-13T10:27:00Z",
      "sunset": "2026-06-14T00:51:00Z",
      "uv_index": 8.0,
      "visibility_mi": 9.0
    },
    "source": {
      "name": "NWS FFC",
      "ok": true,
      "stale": false,
      "fetched_at": "2026-06-13T06:35:00-04:00",
      "age_seconds": 300,
      "last_good_at": "2026-06-13T06:35:00-04:00"
    },
    "hourly": [
      {
        "time": "2026-06-13T07:00",
        "temp_f": 78.0,
        "feels_like_f": 82.0,
        "heat_index_f": 78.0,
        "wind_mph": 6,
        "gust_mph": 13,
        "pop_pct": 10,
        "precip_in": 0
      },
      {
        "time": "2026-06-13T08:00",
        "temp_f": 79.6,
        "feels_like_f": 83.6,
        "heat_index_f": 79.6,
        "wind_mph": 7,
        "gust_mph": 15,
        "pop_pct": 10,
        "precip_in": 0
      },
      {
        "time": "2026-06-13T09:00",
        "temp_f": 81.2,
        "feels_like_f": 85.2,
        "heat_index_f": 85.2,
        "wind_mph": 8,
        "gust_mph": 17,
        "pop_pct": 20,
        "precip_in": 0
      },
      {
        "time": "2026-06-13T10:00",
        "temp_f": 82.8,
        "feels_like_f": 86.8,
        "heat_index_f": 86.8,
        "wind_mph": 9,
        "gust_mph": 19,
        "pop_pct": 30,
        "precip_in": 0
      },
      {
        "time": "2026-06-13T11:00",
        "temp_f": 84.4,
        "feels_like_f": 92.4,
        "heat_index_f": 92.4,
        "wind_mph": 10,
        "gust_mph": 17,
        "pop_pct": 40,
        "precip_in": 0.01
      },
      {
        "time": "2026-06-13T12:00",
        "temp_f": 86.0,
        "feels_like_f": 94.0,
        "heat_index_f": 94.0,
        "wind_mph": 6,
        "gust_mph": 14,
        "pop_pct": 50,
        "precip_in": 0.05
      },
      {
        "time": "2026-06-13T13:00",
        "temp_f": 87.6,
        "feels_like_f": 95.6,
        "heat_index_f": 95.6,
        "wind_mph": 7,
        "gust_mph": 16,
        "pop_pct": 60,
        "precip_in": 0.12
      },
      {
        "time": "2026-06-13T14:00",
        "temp_f": 89.2,
        "feels_like_f": 97.2,
        "heat_index_f": 97.2,
        "wind_mph": 8,
        "gust_mph": 18,
        "pop_pct": 50,
        "precip_in": 0.08
      },
      {
        "time": "2026-06-13T15:00",
        "temp_f": 90.8,
        "feels_like_f": 98.8,
        "heat_index_f": 98.8,
        "wind_mph": 9,
        "gust_mph": 16,
        "pop_pct": 40,
        "precip_in": 0.03
      },
      {
        "time": "2026-06-13T16:00",
        "temp_f": 92.4,
        "feels_like_f": 100.4,
        "heat_index_f": 100.4,
        "wind_mph": 10,
        "gust_mph": 18,
        "pop_pct": 30,
        "precip_in": 0.01
      },
      {
        "time": "2026-06-13T17:00",
        "temp_f": 94.0,
        "feels_like_f": 102.0,
        "heat_index_f": 102.0,
        "wind_mph": 6,
        "gust_mph": 15,
        "pop_pct": 20,
        "precip_in": 0
      },
      {
        "time": "2026-06-13T18:00",
        "temp_f": 95.6,
        "feels_like_f": 103.6,
        "heat_index_f": 103.6,
        "wind_mph": 7,
        "gust_mph": 17,
        "pop_pct": 20,
        "precip_in": 0
      }
    ]
  },
  "commute": {
    "current": {
      "temp_f": 91,
      "feels_like_f": 99,
      "summary": "Storms ending ~6 PM"
    },
    "traffic": [
      {
        "text": "I-20 EB \u2014 heavy, about +18 min",
        "type": "congestion",
        "priority": 2
      },
      {
        "text": "GA-400 SB \u2014 incident @ Northridge",
        "type": "incident",
        "priority": 1
      }
    ],
    "source": {
      "name": "NWS, 511GA",
      "ok": true,
      "stale": false,
      "fetched_at": "2026-06-13T06:41:00-04:00",
      "age_seconds": 60,
      "last_good_at": "2026-06-13T06:41:00-04:00"
    }
  },
  "disruptions": {
    "traffic": [
      {
        "text": "I-285 WB @ Ashford-Dunwoody \u2014 crash, 2 lanes blocked",
        "type": "crash",
        "priority": 40
      },
      {
        "text": "I-75 NB @ MM 251 \u2014 construction, delays",
        "type": "construction",
        "priority": 2
      }
    ],
    "alerts": [
      {
        "text": "Heat Advisory \u2014 metro-wide, until 8 PM",
        "event": "Heat Advisory",
        "severity": "advisory"
      }
    ],
    "source": {
      "name": "511GA, NWS",
      "ok": true,
      "stale": false,
      "fetched_at": "2026-06-13T06:41:00-04:00",
      "age_seconds": 60,
      "last_good_at": "2026-06-13T06:41:00-04:00"
    }
  },
  "forecast_3day": {
    "days": [
      {
        "name": "SAT 14",
        "high_f": 97,
        "low_f": 75,
        "summary": "Storms 50%",
        "icon": "storm"
      },
      {
        "name": "SUN 15",
        "high_f": 94,
        "low_f": 73,
        "summary": "Storms 30%",
        "icon": "storm"
      },
      {
        "name": "MON 16",
        "high_f": 90,
        "low_f": 71,
        "summary": "Clear",
        "icon": "clear"
      }
    ],
    "spc_outlook": {
      "text": "Slight risk Sat (metro edge)",
      "category": "slight",
      "day": 1
    },
    "source": {
      "name": "NWS FFC, SPC",
      "ok": true,
      "stale": false,
      "fetched_at": "2026-06-13T06:40:00-04:00",
      "age_seconds": 120,
      "last_good_at": "2026-06-13T06:40:00-04:00"
    }
  },
  "safety_tips": {
    "enabled": true,
    "rotation_seconds": 30,
    "tips": [
      {
        "id": "heat-01",
        "text": "Drink water before you're thirsty. Thirst means you're already behind \u2014 sip on a schedule, not on demand.",
        "category": "heat",
        "tags": [
          "heat"
        ]
      },
      {
        "id": "lightning-01",
        "text": "When thunder rolls, head indoors or into a hard-top vehicle. Wait 30 minutes after the last thunder before going back out.",
        "category": "lightning",
        "tags": [
          "lightning"
        ]
      },
      {
        "id": "general-01",
        "text": "Tell someone your route and expected return before you head out. A check-in plan is only useful if it exists before something goes wrong.",
        "category": "communication",
        "tags": [
          "communication"
        ]
      },
      {
        "id": "general-02",
        "text": "Walk a full circle around the vehicle before backing up. Mirrors have blind spots; a 10-second lap doesn't.",
        "category": "vehicle",
        "tags": [
          "driving",
          "vehicle"
        ]
      },
      {
        "id": "general-03",
        "text": "Hi-vis works on contrast, not color. At dusk and in rain, add lights \u2014 drivers see what stands out, not what's bright.",
        "category": "ppe",
        "tags": [
          "ppe"
        ]
      }
    ]
  },
  "sources": {
    "nws": {
      "name": "NWS FFC",
      "ok": true,
      "stale": false,
      "fetched_at": "2026-06-13T06:35:00-04:00",
      "age_seconds": 300,
      "last_good_at": "2026-06-13T06:35:00-04:00"
    },
    "spc": {
      "name": "SPC",
      "ok": true,
      "stale": false,
      "fetched_at": "2026-06-13T06:40:00-04:00",
      "age_seconds": 120,
      "last_good_at": "2026-06-13T06:40:00-04:00"
    },
    "ga511": {
      "name": "511GA",
      "ok": true,
      "stale": false,
      "fetched_at": "2026-06-13T06:41:00-04:00",
      "age_seconds": 60,
      "last_good_at": "2026-06-13T06:41:00-04:00"
    },
    "airnow": {
      "name": "AirNow",
      "ok": true,
      "stale": false,
      "fetched_at": "2026-06-13T06:00:00-04:00",
      "age_seconds": 2520,
      "last_good_at": "2026-06-13T06:00:00-04:00"
    },
    "openmeteo": {
      "name": "Open-Meteo",
      "ok": true,
      "stale": false,
      "fetched_at": "2026-06-13T06:35:00-04:00",
      "age_seconds": 300,
      "last_good_at": "2026-06-13T06:35:00-04:00"
    },
    "weather_map": {
      "name": "Weather Map",
      "ok": true,
      "stale": false,
      "fetched_at": "2026-06-13T06:35:00-04:00",
      "age_seconds": 300,
      "last_good_at": "2026-06-13T06:35:00-04:00"
    }
  },
  "astro": {
    "moon_phase": "Waxing Gibbous",
    "illumination_pct": 82,
    "phase_fraction": 0.38
  },
  "weather_map": {
    "enabled": true,
    "center": {
      "lat": 33.749,
      "lon": -84.388
    },
    "default_zoom": 7,
    "min_zoom": 5,
    "max_zoom": 10,
    "base_style": "dark",
    "layers": {
      "radar": {
        "default_on": true,
        "opacity": 0.7
      },
      "alerts": {
        "default_on": true
      },
      "temps": {
        "default_on": true,
        "opacity": 0.85
      }
    },
    "animation": {
      "enabled": true,
      "frames": 8,
      "interval_ms": 600,
      "refresh_seconds": 300
    },
    "source": {
      "name": "Weather Map",
      "ok": true,
      "stale": false,
      "fetched_at": "2026-06-13T06:35:00-04:00",
      "age_seconds": 300,
      "last_good_at": "2026-06-13T06:35:00-04:00"
    },
    "rotation": {
      "enabled": true,
      "interval_seconds": 20,
      "modes": [
        "radar",
        "alerts",
        "temps",
        "traffic"
      ]
    },
    "temps": {
      "cities": [
        {
          "name": "Paducah",
          "lat": 37.083,
          "lon": -88.6
        },
        {
          "name": "Memphis",
          "lat": 35.146,
          "lon": -90.049
        },
        {
          "name": "Nashville",
          "lat": 36.163,
          "lon": -86.781
        },
        {
          "name": "Knoxville",
          "lat": 35.961,
          "lon": -83.921
        },
        {
          "name": "Chattanooga",
          "lat": 35.046,
          "lon": -85.31
        },
        {
          "name": "Huntsville",
          "lat": 34.73,
          "lon": -86.586
        },
        {
          "name": "Birmingham",
          "lat": 33.521,
          "lon": -86.809
        },
        {
          "name": "Tuscaloosa",
          "lat": 33.21,
          "lon": -87.569
        },
        {
          "name": "Montgomery",
          "lat": 32.367,
          "lon": -86.3
        },
        {
          "name": "Mobile",
          "lat": 30.694,
          "lon": -88.043
        },
        {
          "name": "Dothan",
          "lat": 31.223,
          "lon": -85.39
        },
        {
          "name": "Asheville",
          "lat": 35.595,
          "lon": -82.551
        },
        {
          "name": "Charlotte",
          "lat": 35.227,
          "lon": -80.843
        },
        {
          "name": "Greenville",
          "lat": 34.853,
          "lon": -82.394
        },
        {
          "name": "Columbia",
          "lat": 34.001,
          "lon": -81.035
        },
        {
          "name": "Charleston",
          "lat": 32.776,
          "lon": -79.931
        },
        {
          "name": "Atlanta",
          "lat": 33.749,
          "lon": -84.388
        },
        {
          "name": "Athens",
          "lat": 33.961,
          "lon": -83.378
        },
        {
          "name": "Augusta",
          "lat": 33.471,
          "lon": -81.975
        },
        {
          "name": "Macon",
          "lat": 32.841,
          "lon": -83.632
        },
        {
          "name": "Columbus",
          "lat": 32.461,
          "lon": -84.988
        },
        {
          "name": "Albany",
          "lat": 31.578,
          "lon": -84.156
        },
        {
          "name": "Savannah",
          "lat": 32.081,
          "lon": -81.091
        },
        {
          "name": "Brunswick",
          "lat": 31.15,
          "lon": -81.491
        },
        {
          "name": "Valdosta",
          "lat": 30.833,
          "lon": -83.278
        },
        {
          "name": "Tallahassee",
          "lat": 30.438,
          "lon": -84.281
        },
        {
          "name": "Pensacola",
          "lat": 30.421,
          "lon": -87.217
        },
        {
          "name": "Panama City",
          "lat": 30.166,
          "lon": -85.66
        },
        {
          "name": "Jacksonville",
          "lat": 30.332,
          "lon": -81.656
        },
        {
          "name": "St. Augustine",
          "lat": 29.901,
          "lon": -81.313
        }
      ]
    },
    "alerts": {
      "area": [
        "GA",
        "TN",
        "AL",
        "FL",
        "SC",
        "NC",
        "KY"
      ]
    }
  },
  "air_quality": {
    "aqi": 105,
    "category": "Unhealthy for Sensitive Groups",
    "label": "Code Orange",
    "pollutant": "O3",
    "source": {
      "name": "AirNow",
      "ok": true,
      "stale": false,
      "fetched_at": "2026-06-13T06:00:00-04:00",
      "age_seconds": 2520,
      "last_good_at": "2026-06-13T06:00:00-04:00"
    }
  }
}
